{"type":"FeatureCollection","features":[{"type":"Feature","properties":{"id":"Tito Arturo de la Cruz, tenía 15 años y era estudiante de secundaria del colegio José Gabriel Condorcanqui.","image":"https://raw.githubusercontent.com/bzdjahna/StoryMap_Students/refs/heads/main/img/1_Tito_Arturo_De_La_Cruz_a.png","text":"Tito Arturo De La Cruz was 15 years old, a high school student at the EI José Gabriel Condorcanqui.","title":"IE Jose Gabriel Condorcanqui","nro":1},"geometry":{"type":"Point","coordinates":[-74.2232,-13.173]}},{"type":"Feature","properties":{"id":"Y mientras Tito jugaba fútbol con sus amigos, el 15 de julio de 1984, fue capturado en una batida por los militares vestidos de civiles y aparentemente es llevado en dirección hacia el local de la ex Guardia Civil.","image":"https://raw.githubusercontent.com/bzdjahna/StoryMap_Students/refs/heads/main/img/1_Tito_Arturo_De_La_Cruz_b.png","text":"And while Tito was playing soccer with his friends, on July 15, 1984, he was captured in a raid by the military dressed as civilians and apparently taken in the direction of the premises of the former Civil Guard.","title":"Ex Guardia Civil","nro":3},"geometry":{"type":"Point","coordinates":[-74.2259,-13.1539]}},{"type":"Feature","properties":{"id":"Luego, Tito es llevado a la Base Militar Los Cabitos.","image":"https://raw.githubusercontent.com/bzdjahna/StoryMap_Students/refs/heads/main/img/1_Tito_Arturo_De_La_Cruz_c.png","text":"Taken to the Military Base Los Cabitos.","title":"Los Cabitos","nro":4},"geometry":{"type":"Point","coordinates":[-74.2038,-13.1472]}},{"type":"Feature","properties":{"id":"Su madre ofrece testimonio en la Defensoría del Pueblo y a organizaciones de Derechos Humanos.","image":"https://raw.githubusercontent.com/bzdjahna/StoryMap_Students/refs/heads/main/img/1_Tito_Arturo_De_La_Cruz_d.png","text":"His mother provided testimony to the Ombudsman's Office and Human Rights organizations.","title":"Los Cabitos","nro":5},"geometry":{"type":"Point","coordinates":[-74.2038,-13.1472]}},{"type":"Feature","properties":{"id":"Años más tarde, el cuerpo de Tito es identificado en una de las fosas de La Hoyada y en el 2020 es restituido a su familia.","image":"https://raw.githubusercontent.com/bzdjahna/StoryMap_Students/refs/heads/main/img/1_Tito_Arturo_De_La_Cruz_e.png","text":"Years later, Tito's body was identified in one of the graves at La Hoyada and in 2020 was returned to his family.","title":"La Hoyada","nro":6},"geometry":{"type":"Point","coordinates":[-74.1987,-13.1445]}},{"type":"Feature","properties":{"id":"Amadeo Amalquino Conga Ataucusi, tenía 17 años, y era estudiante de secundaria en el colegio Luis Carranza.","image":"https://raw.githubusercontent.com/bzdjahna/StoryMap_Students/refs/heads/main/img/2_Amadeo_Amalquino_Conga_a.png","text":"Amadeo Amalquino Conga Ataucusi, was 17 years old, a student at the Luis Carranza school.","title":"IE Luis Carranza","nro":7},"geometry":{"type":"Point","coordinates":[-74.2246,-13.1566]}},{"type":"Feature","properties":{"id":"Se dedicaba al tejido artesanal con el que ayudaba en la economía familiar.","image":"https://raw.githubusercontent.com/bzdjahna/StoryMap_Students/refs/heads/main/img/2_Amadeo_Amalquino_Conga_b.png","text":"He was dedicated to handicraft weaving, which helped his family's economy"},"geometry":{"type":"Point","coordinates":[-74.2242,-13.156]}},{"type":"Feature","properties":{"id":"Mientras dormía, el 28 de Julio de 1984, ingresaron a su dominicio diez personas encapuchadas del ejército.","image":"https://raw.githubusercontent.com/bzdjahna/StoryMap_Students/refs/heads/main/img/2_Amadeo_Amalquino_Conga_c.png","text":"While he was sleeping, on July 28, 1984, ten hooded army personnel entered his home."},"geometry":{"type":"Point","coordinates":[-74.2242,-13.156]}},{"type":"Feature","properties":{"id":"Lo suben a un camión del ejército y dejan a su hermana con los ojos bendados, quien estaba presente en ese momento.","image":"https://raw.githubusercontent.com/bzdjahna/StoryMap_Students/refs/heads/main/img/2_Amadeo_Amalquino_Conga_d.png","text":"He is put in a military truck and his sister is left blindfolded."},"geometry":{"type":"Point","coordinates":[-74.2038,-13.1472]}},{"type":"Feature","properties":{"id":"Es llevado a el cuartel Cabitos. Así, Amadeo también es encontrado años después en una fosa de la Hoyada.","image":"https://raw.githubusercontent.com/bzdjahna/StoryMap_Students/refs/heads/main/img/2_Amadeo_Amalquino_Conga_e.png","text":"He is taken to the Cabitos barracks. Amadeo is also found years later in the grave of La Hoyada."},"geometry":{"type":"Point","coordinates":[-74.1987,-13.1445]}},{"type":"Feature","properties":{"id":"Severino Díaz Quispe, de 17 años, quien estudiaba en el colegio Los Libertadores...","image":"https://raw.githubusercontent.com/bzdjahna/StoryMap_Students/refs/heads/main/img/3_Severino_D%C3%ADas_Quispe_a.png","text":"Severino Díaz Quispe, 17, who was a student at Los Libertadores school.","title":"IE Los Libertadores","nro":7},"geometry":{"type":"Point","coordinates":[-74.2308,-13.157]}},{"type":"Feature","properties":{"id":"Participaba en un desfile por fiestas patrias en la Plaza Sucre el 28 de julio de 1984.","image":"https://raw.githubusercontent.com/bzdjahna/StoryMap_Students/refs/heads/main/img/3_Severino_D%C3%ADas_Quispe_b.png","text":"He participated in a national holiday parade in Plaza Sucre on July 28, 1984.","title":"Plaza Sucre","nro":9},"geometry":{"type":"Point","coordinates":[-74.2259,-13.16]}},{"type":"Feature","properties":{"id":"Es intervenido por los \"Sinchis\", la Guardia Civil, parece que fue llevado al hospital, y finalmente, lo desaparecen.","image":"https://raw.githubusercontent.com/bzdjahna/StoryMap_Students/refs/heads/main/img/3_Severino_D%C3%ADas_Quispe_c.png","text":"Suddenly he is intervened by the “Sinchis”, the Civil Guard. Some nurses at the local hospital say that Severino was there, but right after he disappears."},"geometry":{"type":"Point","coordinates":[-74.2259,-13.16]}},{"type":"Feature","properties":{"id":"Severino era quien colaboraba en la economía familiar elaborando frazadas.","image":"https://raw.githubusercontent.com/bzdjahna/StoryMap_Students/refs/heads/main/img/3_Severino_D%C3%ADas_Quispe_d.png","text":"Severino was the one who collaborated in the family economy by making blankets."},"geometry":{"type":"Point","coordinates":[-74.2259,-13.16]}},{"type":"Feature","properties":{"id":"Sus familiares mostraron el carné de trabajo de Severino a las autoridades, demostrando que era un chico trabajador. Su cuerpo es restituido a sus familiares en el 2020.","image":"https://raw.githubusercontent.com/bzdjahna/StoryMap_Students/refs/heads/main/img/3_Severino_D%C3%ADas_Quispe_e.png","text":"His relatives showed the judicial authorities his work card, showing that he was a hard-working boy. His body was returned to his relatives in 2020 after being found in La Hoyada."},"geometry":{"type":"Point","coordinates":[-74.1987,-13.1445]}},{"type":"Feature","properties":{"id":"Eloy Barrón Barboza, tenía 19 años, estudiaba en el colegio San Ramón.","image":"https://raw.githubusercontent.com/bzdjahna/StoryMap_Students/refs/heads/main/img/4_Eloy_Barr%C3%B3n_Barboza_a.png","text":"Eloy Barrón Barboza, 19 years old, was a student at San Ramón school.","title":"IE San Ramon","nro":10},"geometry":{"type":"Point","coordinates":[-74.2236,-13.1637]}},{"type":"Feature","properties":{"id":"El 29 de julio de 1984, entraron seis personas encapuchadas y armadas al domicilio de Eloy, mientras este dormía.","image":"https://raw.githubusercontent.com/bzdjahna/StoryMap_Students/refs/heads/main/img/4_Eloy_Barr%C3%B3n_Barboza_b.png","text":"Six hooded and armed persons entered Eloy's home while he was sleeping on July 29, 1984."},"geometry":{"type":"Point","coordinates":[-74.2347,-13.1593]}},{"type":"Feature","properties":{"id":"Se lo llevaron encampuchado en un carro de la policía.","image":"https://raw.githubusercontent.com/bzdjahna/StoryMap_Students/refs/heads/main/img/4_Eloy_Barr%C3%B3n_Barboza_c.png","text":"He was hooded and taken away in a police car."},"geometry":{"type":"Point","coordinates":[-74.2038,-13.1472]}},{"type":"Feature","properties":{"id":"Su madre los buscó desesperadamente en el cuartel los Cabitos.","image":"https://raw.githubusercontent.com/bzdjahna/StoryMap_Students/refs/heads/main/img/4_Eloy_Barr%C3%B3n_Barboza_d.png","text":"Their mother is desperately looking for them at the Los Cabitos barracks."},"geometry":{"type":"Point","coordinates":[-74.1987,-13.1445]}},{"type":"Feature","properties":{"id":"Sin embargo, un vecino que había salido vivo del cuartel los Cabitos, informa que había visto a alguien similar a Eloy y que este había fallecido. Su cuerpo es \r\nencontrado en la Hoyada y restituido a sus familiares en el 2020.","image":"https://raw.githubusercontent.com/bzdjahna/StoryMap_Students/refs/heads/main/img/4_Eloy_Barr%C3%B3n_Barboza_e.png","text":"A neighbor who had left the Cabitos barracks alive, informs Eloy's mother that he had seen someone similar to Eloy and informs her that the boy had died."},"geometry":{"type":"Point","coordinates":[-74.1987,-13.1445]}},{"type":"Feature","properties":{"id":"Edy Roberto Sulca Gómez, de 18 años.","image":"https://raw.githubusercontent.com/bzdjahna/StoryMap_Students/refs/heads/main/img/5Edy_Roberto_Sulca_a.png","text":"Edy Roberto Sulca Gómez, 18 years old."},"geometry":{"type":"Point","coordinates":[-74.2384,-13.1647]}},{"type":"Feature","properties":{"id":"Era estudiante del colegio San Ramón.","image":"https://raw.githubusercontent.com/bzdjahna/StoryMap_Students/refs/heads/main/img/5Edy_Roberto_Sulca_c.png","text":"He was a student at San Ramon High School."},"geometry":{"type":"Point","coordinates":[-74.229,-13.1597]}},{"type":"Feature","properties":{"id":"Luego de recibir su libreta militar en la ciudad, el 10 de julio de 1984, regresando a casa ese día...","image":"https://raw.githubusercontent.com/bzdjahna/StoryMap_Students/refs/heads/main/img/5Edy_Roberto_Sulca_b.png","text":"After receiving his military ID in the city of Huamanga on July 10, 1984."},"geometry":{"type":"Point","coordinates":[-74.2236,-13.1637]}},{"type":"Feature","properties":{"id":"fue interceptado y llevado por los militares.","image":"https://raw.githubusercontent.com/bzdjahna/StoryMap_Students/refs/heads/main/img/5Edy_Roberto_Sulca_d.png","text":"He was intercepted by the military on the bus he was returning home that same day."},"geometry":{"type":"Point","coordinates":[-74.2384,-13.1647]}},{"type":"Feature","properties":{"id":"Su cuerpo fue encontrado años después en la fosas de la Hoyada, dejando un vacío imborrable en su familia.","image":"https://raw.githubusercontent.com/bzdjahna/StoryMap_Students/refs/heads/main/img/5Edy_Roberto_Sulca_e.png","text":"Edy's body was also found years later in the graves of La Hoyada, but leaving the family so much emptiness."},"geometry":{"type":"Point","coordinates":[-74.1987,-13.1445]}}]}